{
  "id": 225,
  "name": "Turkey",
  "iso3": "TUR",
  "iso2": "TR",
  "numeric_code": "792",
  "phone_code": "90",
  "capital": "Ankara",
  "currency": "TRY",
  "currency_name": "Turkish lira",
  "currency_symbol": "\u20ba",
  "tld": ".tr",
  "native": "T\u00fcrkiye",
  "region": "Asia",
  "subregion": "Western Asia",
  "timezones": [
    {
      "zoneName": "Europe/Istanbul",
      "gmtOffset": 10800,
      "gmtOffsetName": "UTC+03:00",
      "abbreviation": "EET",
      "tzName": "Eastern European Time"
    }
  ],
  "translations": {
    "kr": "\ud130\ud0a4",
    "br": "Turquia",
    "pt": "Turquia",
    "nl": "Turkije",
    "hr": "Turska",
    "fa": "\u062a\u0631\u06a9\u06cc\u0647",
    "de": "T\u00fcrkei",
    "es": "Turqu\u00eda",
    "fr": "Turquie",
    "ja": "\u30c8\u30eb\u30b3",
    "it": "Turchia",
    "cn": "\u571f\u8033\u5176",
    "tr": "T\u00fcrkiye"
  },
  "latitude": "39.00000000",
  "longitude": "35.00000000",
  "emoji": "\ud83c\uddf9\ud83c\uddf7",
  "emojiU": "U+1F1F9 U+1F1F7",
  "states": [
    {
      "id": 2212,
      "name": "Adana",
      "state_code": "01",
      "latitude": "37.26123150",
      "longitude": "35.39050460",
      "type": "province",
      "cities": [
        {
          "id": 107063,
          "name": "Adana",
          "latitude": "37.00167000",
          "longitude": "35.32889000"
        },
        {
          "id": 107120,
          "name": "Alada\u011f",
          "latitude": "37.55854000",
          "longitude": "35.40196000"
        },
        {
          "id": 107258,
          "name": "Bah\u00e7e",
          "latitude": "37.19724000",
          "longitude": "36.57658000"
        },
        {
          "id": 107427,
          "name": "Ceyhan",
          "latitude": "37.02472000",
          "longitude": "35.81750000"
        },
        {
          "id": 108848,
          "name": "\u00c7ukurova",
          "latitude": "37.05627000",
          "longitude": "35.13119000"
        },
        {
          "id": 107635,
          "name": "Feke",
          "latitude": "37.82405000",
          "longitude": "35.91826000"
        },
        {
          "id": 108893,
          "name": "\u0130mamo\u011flu",
          "latitude": "37.27500000",
          "longitude": "35.66649000"
        },
        {
          "id": 107896,
          "name": "Karaisal\u0131",
          "latitude": "37.26655000",
          "longitude": "35.05033000"
        },
        {
          "id": 107918,
          "name": "Karata\u015f",
          "latitude": "36.57186000",
          "longitude": "35.36784000"
        },
        {
          "id": 108033,
          "name": "Kozan",
          "latitude": "37.50000000",
          "longitude": "35.75000000"
        },
        {
          "id": 108349,
          "name": "Pozant\u0131",
          "latitude": "37.43671000",
          "longitude": "34.88057000"
        },
        {
          "id": 108374,
          "name": "Saimbeyli",
          "latitude": "37.99615000",
          "longitude": "36.09909000"
        },
        {
          "id": 108414,
          "name": "Sar\u0131\u00e7am",
          "latitude": "37.14971000",
          "longitude": "35.50949000"
        },
        {
          "id": 108452,
          "name": "Seyhan",
          "latitude": "36.95540000",
          "longitude": "35.21637000"
        },
        {
          "id": 108597,
          "name": "Tufanbeyli",
          "latitude": "38.27343000",
          "longitude": "36.22731000"
        },
        {
          "id": 108737,
          "name": "Yumurtal\u0131k",
          "latitude": "36.78245000",
          "longitude": "35.79949000"
        },
        {
          "id": 108745,
          "name": "Y\u00fcre\u011fir",
          "latitude": "36.99205000",
          "longitude": "35.45402000"
        }
      ]
    },
    {
      "id": 2155,
      "name": "Ad\u0131yaman",
      "state_code": "02",
      "latitude": "37.90782910",
      "longitude": "38.48499230",
      "type": "province",
      "cities": [
        {
          "id": 107067,
          "name": "Ad\u0131yaman",
          "latitude": "37.76441000",
          "longitude": "38.27629000"
        },
        {
          "id": 107173,
          "name": "Aral\u0131k \u0130l\u00e7esi",
          "latitude": "39.88314000",
          "longitude": "44.52330000"
        },
        {
          "id": 107332,
          "name": "Besni",
          "latitude": "37.69278000",
          "longitude": "37.86111000"
        },
        {
          "id": 108814,
          "name": "\u00c7elikhan",
          "latitude": "38.02560000",
          "longitude": "38.23665000"
        },
        {
          "id": 107666,
          "name": "Gerger",
          "latitude": "37.95000000",
          "longitude": "39.01667000"
        },
        {
          "id": 107688,
          "name": "G\u00f6lba\u015f\u0131",
          "latitude": "37.78361000",
          "longitude": "37.63667000"
        },
        {
          "id": 108069,
          "name": "K\u00e2hta",
          "latitude": "37.78552000",
          "longitude": "38.62370000"
        },
        {
          "id": 108194,
          "name": "Merkez",
          "latitude": "37.74454000",
          "longitude": "38.26801000"
        },
        {
          "id": 108379,
          "name": "Samsat",
          "latitude": "37.58194000",
          "longitude": "38.47417000"
        },
        {
          "id": 108471,
          "name": "Sincik",
          "latitude": "38.03645000",
          "longitude": "38.61257000"
        },
        {
          "id": 108606,
          "name": "Tut",
          "latitude": "37.79529000",
          "longitude": "37.91610000"
        }
      ]
    },
    {
      "id": 2179,
      "name": "Afyonkarahisar",
      "state_code": "03",
      "latitude": "38.73910990",
      "longitude": "30.71200230",
      "type": "province",
      "cities": [
        {
          "id": 107068,
          "name": "Afyonkarahisar",
          "latitude": "38.75667000",
          "longitude": "30.54333000"
        },
        {
          "id": 107318,
          "name": "Ba\u015fmak\u00e7\u0131",
          "latitude": "37.89722000",
          "longitude": "30.01167000"
        },
        {
          "id": 107293,
          "name": "Bayat",
          "latitude": "38.98306000",
          "longitude": "30.92472000"
        },
        {
          "id": 107367,
          "name": "Bolvadin",
          "latitude": "38.71111000",
          "longitude": "31.04861000"
        },
        {
          "id": 108795,
          "name": "\u00c7ay",
          "latitude": "38.59167000",
          "longitude": "31.02861000"
        },
        {
          "id": 108841,
          "name": "\u00c7obanlar \u0130l\u00e7esi",
          "latitude": "38.71085000",
          "longitude": "30.78874000"
        },
        {
          "id": 107455,
          "name": "Dazk\u0131r\u0131",
          "latitude": "37.91861000",
          "longitude": "29.86056000"
        },
        {
          "id": 107498,
          "name": "Dinar",
          "latitude": "38.06500000",
          "longitude": "30.16557000"
        },
        {
          "id": 107576,
          "name": "Emirda\u011f",
          "latitude": "39.01972000",
          "longitude": "31.15000000"
        },
        {
          "id": 107612,
          "name": "Evciler",
          "latitude": "38.04139000",
          "longitude": "29.88667000"
        },
        {
          "id": 107831,
          "name": "Hocalar",
          "latitude": "38.57824000",
          "longitude": "29.96768000"
        },
        {
          "id": 108883,
          "name": "\u0130hsaniye",
          "latitude": "39.02916000",
          "longitude": "30.41639000"
        },
        {
          "id": 108912,
          "name": "\u0130scehisar",
          "latitude": "38.93900000",
          "longitude": "30.75002000"
        },
        {
          "id": 107854,
          "name": "I\u015f\u0131klar",
          "latitude": "38.67101000",
          "longitude": "30.74098000"
        },
        {
          "id": 108120,
          "name": "K\u0131z\u0131l\u00f6ren",
          "latitude": "38.25806000",
          "longitude": "30.15167000"
        },
        {
          "id": 108190,
          "name": "Merkez",
          "latitude": "38.79698000",
          "longitude": "30.51951000"
        },
        {
          "id": 108383,
          "name": "Sand\u0131kl\u0131",
          "latitude": "38.46472000",
          "longitude": "30.26946000"
        },
        {
          "id": 108468,
          "name": "Sinanpa\u015fa",
          "latitude": "38.74444000",
          "longitude": "30.24278000"
        },
        {
          "id": 108964,
          "name": "\u015euhut",
          "latitude": "38.53111000",
          "longitude": "30.54583000"
        },
        {
          "id": 108493,
          "name": "Sultanda\u011f\u0131",
          "latitude": "38.53111000",
          "longitude": "31.22806000"
        }
      ]
    },
    {
      "id": 2193,
      "name": "A\u011fr\u0131",
      "state_code": "04",
      "latitude": "39.62692180",
      "longitude": "43.02159650",
      "type": "province",
      "cities": [
        {
          "id": 107244,
          "name": "A\u011fr\u0131",
          "latitude": "39.71944000",
          "longitude": "43.05139000"
        },
        {
          "id": 107502,
          "name": "Diyadin",
          "latitude": "39.54056000",
          "longitude": "43.67135000"
        },
        {
          "id": 107527,
          "name": "Do\u011fubayaz\u0131t",
          "latitude": "39.54694000",
          "longitude": "44.08417000"
        },
        {
          "id": 107566,
          "name": "Ele\u015fkirt",
          "latitude": "39.79803000",
          "longitude": "42.67574000"
        },
        {
          "id": 107783,
          "name": "Hamur",
          "latitude": "39.60561000",
          "longitude": "42.98500000"
        },
        {
          "id": 108316,
          "name": "Patnos",
          "latitude": "39.22493000",
          "longitude": "42.85693000"
        },
        {
          "id": 108552,
          "name": "Ta\u015fl\u0131\u00e7ay",
          "latitude": "39.62966000",
          "longitude": "43.36878000"
        },
        {
          "id": 108608,
          "name": "Tutak \u0130l\u00e7esi",
          "latitude": "39.55042000",
          "longitude": "42.77572000"
        }
      ]
    },
    {
      "id": 2210,
      "name": "Aksaray",
      "state_code": "68",
      "latitude": "38.33520430",
      "longitude": "33.97500180",
      "type": "province",
      "cities": [
        {
          "id": 107239,
          "name": "A\u011fa\u00e7\u00f6ren",
          "latitude": "38.87484000",
          "longitude": "33.91674000"
        },
        {
          "id": 107091,
          "name": "Aksaray",
          "latitude": "38.37255000",
          "longitude": "34.02537000"
        },
        {
          "id": 107606,
          "name": "Eskil \u0130l\u00e7esi",
          "latitude": "38.41158000",
          "longitude": "33.41994000"
        },
        {
          "id": 107727,
          "name": "G\u00fcla\u011fa\u00e7 \u0130l\u00e7esi",
          "latitude": "38.40641000",
          "longitude": "34.35071000"
        },
        {
          "id": 107761,
          "name": "G\u00fczelyurt",
          "latitude": "38.27722000",
          "longitude": "34.37194000"
        },
        {
          "id": 108178,
          "name": "Merkez",
          "latitude": "38.37060000",
          "longitude": "34.02843000"
        },
        {
          "id": 108283,
          "name": "Ortak\u00f6y",
          "latitude": "38.73728000",
          "longitude": "34.03866000"
        },
        {
          "id": 108409,
          "name": "Sar\u0131yah\u015fi",
          "latitude": "38.98349000",
          "longitude": "33.84136000"
        },
        {
          "id": 108496,
          "name": "Sultanhan\u0131",
          "latitude": "38.24710000",
          "longitude": "33.54961000"
        }
      ]
    },
    {
      "id": 2161,
      "name": "Amasya",
      "state_code": "05",
      "latitude": "40.65166080",
      "longitude": "35.90379660",
      "type": "province",
      "cities": [
        {
          "id": 107157,
          "name": "Amasya",
          "latitude": "40.65333000",
          "longitude": "35.83306000"
        },
        {
          "id": 107457,
          "name": "Dedek\u00f6y",
          "latitude": "40.74752000",
          "longitude": "35.04249000"
        },
        {
          "id": 107716,
          "name": "G\u00f6yn\u00fccek",
          "latitude": "40.39917000",
          "longitude": "35.52500000"
        },
        {
          "id": 107737,
          "name": "G\u00fcm\u00fc\u015fhac\u0131k\u00f6y",
          "latitude": "40.87306000",
          "longitude": "35.21472000"
        },
        {
          "id": 107781,
          "name": "Hamam\u00f6z\u00fc \u0130l\u00e7esi",
          "latitude": "40.79539000",
          "longitude": "35.03367000"
        },
        {
          "id": 108195,
          "name": "Merkez",
          "latitude": "40.61939000",
          "longitude": "35.87016000"
        },
        {
          "id": 108200,
          "name": "Merzifon \u0130l\u00e7esi",
          "latitude": "40.88348000",
          "longitude": "35.47116000"
        },
        {
          "id": 108500,
          "name": "Suluova",
          "latitude": "40.83129000",
          "longitude": "35.64788000"
        },
        {
          "id": 108554,
          "name": "Ta\u015fova",
          "latitude": "40.75972000",
          "longitude": "36.32250000"
        }
      ]
    },
    {
      "id": 2217,
      "name": "Ankara",
      "state_code": "06",
      "latitude": "39.78052450",
      "longitude": "32.71813750",
      "type": "province",
      "cities": [
        {
          "id": 107102,
          "name": "Akyurt",
          "latitude": "40.13512000",
          "longitude": "33.08614000"
        },
        {
          "id": 107139,
          "name": "Alt\u0131nda\u011f",
          "latitude": "40.00110000",
          "longitude": "32.97022000"
        },
        {
          "id": 107135,
          "name": "Altp\u0131nar",
          "latitude": "39.20417000",
          "longitude": "32.74778000"
        },
        {
          "id": 107166,
          "name": "Ankara",
          "latitude": "39.91987000",
          "longitude": "32.85427000"
        },
        {
          "id": 107217,
          "name": "Aya\u015f",
          "latitude": "40.01933000",
          "longitude": "32.33221000"
        },
        {
          "id": 107268,
          "name": "Bala \u0130l\u00e7esi",
          "latitude": "39.56374000",
          "longitude": "33.12962000"
        },
        {
          "id": 107290,
          "name": "Batikent",
          "latitude": "39.96833000",
          "longitude": "32.73083000"
        },
        {
          "id": 107342,
          "name": "Beypazari",
          "latitude": "40.14695000",
          "longitude": "31.91911000"
        },
        {
          "id": 107343,
          "name": "Beypazar\u0131",
          "latitude": "40.16750000",
          "longitude": "31.92111000"
        },
        {
          "id": 108768,
          "name": "\u00c7aml\u0131dere",
          "latitude": "40.48958000",
          "longitude": "32.47499000"
        },
        {
          "id": 108779,
          "name": "\u00c7ankaya",
          "latitude": "39.91790000",
          "longitude": "32.86268000"
        },
        {
          "id": 108844,
          "name": "\u00c7ubuk",
          "latitude": "40.23861000",
          "longitude": "33.03222000"
        },
        {
          "id": 107568,
          "name": "Elmada\u011f",
          "latitude": "39.92083000",
          "longitude": "33.23083000"
        },
        {
          "id": 107611,
          "name": "Etimesgut \u0130l\u00e7esi",
          "latitude": "39.96335000",
          "longitude": "32.63744000"
        },
        {
          "id": 107614,
          "name": "Evren",
          "latitude": "39.02402000",
          "longitude": "33.80626000"
        },
        {
          "id": 107687,
          "name": "G\u00f6lba\u015f\u0131",
          "latitude": "39.79043000",
          "longitude": "32.80903000"
        },
        {
          "id": 107725,
          "name": "G\u00fcd\u00fcl",
          "latitude": "40.21051000",
          "longitude": "32.24552000"
        },
        {
          "id": 107811,
          "name": "Haymana",
          "latitude": "39.43212000",
          "longitude": "32.49732000"
        },
        {
          "id": 107868,
          "name": "Kahramankazan",
          "latitude": "40.16502000",
          "longitude": "32.63904000"
        },
        {
          "id": 107874,
          "name": "Kalecik",
          "latitude": "40.09722000",
          "longitude": "33.40833000"
        },
        {
          "id": 107956,
          "name": "Kazan",
          "latitude": "40.23167000",
          "longitude": "32.68389000"
        },
        {
          "id": 107991,
          "name": "Ke\u00e7i\u00f6ren",
          "latitude": "40.02106000",
          "longitude": "32.83102000"
        },
        {
          "id": 108113,
          "name": "K\u0131z\u0131lcahamam",
          "latitude": "40.46972000",
          "longitude": "32.65056000"
        },
        {
          "id": 108147,
          "name": "Mamak \u0130l\u00e7esi",
          "latitude": "39.94587000",
          "longitude": "32.90811000"
        },
        {
          "id": 108237,
          "name": "Nall\u0131han",
          "latitude": "40.18593000",
          "longitude": "31.35179000"
        },
        {
          "id": 108346,
          "name": "Polatl\u0131",
          "latitude": "39.57715000",
          "longitude": "32.14132000"
        },
        {
          "id": 108352,
          "name": "Pursaklar",
          "latitude": "40.03961000",
          "longitude": "32.90139000"
        },
        {
          "id": 108956,
          "name": "\u015eerefliko\u00e7hisar",
          "latitude": "38.93925000",
          "longitude": "33.53860000"
        },
        {
          "id": 108470,
          "name": "Sincan \u0130l\u00e7esi",
          "latitude": "39.95943000",
          "longitude": "32.49567000"
        },
        {
          "id": 108703,
          "name": "Yenimahalle",
          "latitude": "39.99043000",
          "longitude": "32.69555000"
        }
      ]
    },
    {
      "id": 2169,
      "name": "Antalya",
      "state_code": "07",
      "latitude": "37.09516720",
      "longitude": "31.07937050",
      "type": "province",
      "cities": [
        {
          "id": 107092,
          "name": "Akseki",
          "latitude": "37.04861000",
          "longitude": "31.79000000"
        },
        {
          "id": 107095,
          "name": "Aksu",
          "latitude": "36.95389000",
          "longitude": "30.84778000"
        },
        {
          "id": 107122,
          "name": "Alanya",
          "latitude": "36.54375000",
          "longitude": "31.99982000"
        },
        {
          "id": 107169,
          "name": "Antalya",
          "latitude": "36.90812000",
          "longitude": "30.69556000"
        },
        {
          "id": 107216,
          "name": "Avsallar",
          "latitude": "36.62448000",
          "longitude": "31.76941000"
        },
        {
          "id": 107327,
          "name": "Belek",
          "latitude": "36.86278000",
          "longitude": "31.05556000"
        },
        {
          "id": 107336,
          "name": "Beykonak",
          "latitude": "36.32573000",
          "longitude": "30.30302000"
        },
        {
          "id": 107396,
          "name": "Bo\u011fazkent",
          "latitude": "36.85319000",
          "longitude": "31.16388000"
        },
        {
          "id": 107467,
          "name": "Demre",
          "latitude": "36.24444000",
          "longitude": "29.98500000"
        },
        {
          "id": 107541,
          "name": "D\u00f6\u015femealt\u0131 \u0130l\u00e7esi",
          "latitude": "37.02366000",
          "longitude": "30.59040000"
        },
        {
          "id": 107557,
          "name": "Eksere",
          "latitude": "36.81339000",
          "longitude": "31.99971000"
        },
        {
          "id": 107570,
          "name": "Elmal\u0131",
          "latitude": "36.73583000",
          "longitude": "29.91775000"
        },
        {
          "id": 107617,
          "name": "Evrenseki",
          "latitude": "36.83868000",
          "longitude": "31.35559000"
        },
        {
          "id": 107641,
          "name": "Finike",
          "latitude": "36.42355000",
          "longitude": "30.06645000"
        },
        {
          "id": 107648,
          "name": "Gazipa\u015fa",
          "latitude": "36.26942000",
          "longitude": "32.31792000"
        },
        {
          "id": 107718,
          "name": "G\u00f6yn\u00fck",
          "latitude": "36.66000000",
          "longitude": "30.55000000"
        },
        {
          "id": 107740,
          "name": "G\u00fcndo\u011fmu\u015f \u0130l\u00e7esi",
          "latitude": "36.82446000",
          "longitude": "32.00679000"
        },
        {
          "id": 108877,
          "name": "\u0130brad\u0131",
          "latitude": "37.09694000",
          "longitude": "31.59917000"
        },
        {
          "id": 107876,
          "name": "Kalkan",
          "latitude": "36.26510000",
          "longitude": "29.41369000"
        },
        {
          "id": 107962,
          "name": "Ka\u015f",
          "latitude": "36.20176000",
          "longitude": "29.63766000"
        },
        {
          "id": 107978,
          "name": "Kemer",
          "latitude": "36.59778000",
          "longitude": "30.56056000"
        },
        {
          "id": 107981,
          "name": "Kepez \u0130l\u00e7esi",
          "latitude": "37.01187000",
          "longitude": "30.75966000"
        },
        {
          "id": 108112,
          "name": "K\u0131z\u0131la\u011fa\u00e7",
          "latitude": "36.73055000",
          "longitude": "31.53517000"
        },
        {
          "id": 108017,
          "name": "Konyaalt\u0131",
          "latitude": "36.86424000",
          "longitude": "30.62714000"
        },
        {
          "id": 108024,
          "name": "Korkuteli",
          "latitude": "37.06498000",
          "longitude": "30.19565000"
        },
        {
          "id": 108048,
          "name": "Kumk\u00f6y",
          "latitude": "36.88286000",
          "longitude": "30.95178000"
        },
        {
          "id": 108051,
          "name": "Kumluca",
          "latitude": "36.58000000",
          "longitude": "30.30000000"
        },
        {
          "id": 108139,
          "name": "Mahmutlar",
          "latitude": "36.49463000",
          "longitude": "32.09085000"
        },
        {
          "id": 108148,
          "name": "Manavgat",
          "latitude": "36.78667000",
          "longitude": "31.44306000"
        },
        {
          "id": 108224,
          "name": "Muratpa\u015fa",
          "latitude": "36.89157000",
          "longitude": "30.76498000"
        },
        {
          "id": 108263,
          "name": "Okurcalar",
          "latitude": "36.64876000",
          "longitude": "31.70387000"
        },
        {
          "id": 108319,
          "name": "Payallar",
          "latitude": "36.60160000",
          "longitude": "31.85057000"
        },
        {
          "id": 108441,
          "name": "Serik",
          "latitude": "37.07743000",
          "longitude": "31.00677000"
        },
        {
          "id": 108456,
          "name": "Side",
          "latitude": "36.76667000",
          "longitude": "31.38889000"
        },
        {
          "id": 108560,
          "name": "Tekirova",
          "latitude": "36.50170000",
          "longitude": "30.52723000"
        },
        {
          "id": 108614,
          "name": "T\u00fcrkler",
          "latitude": "36.60198000",
          "longitude": "31.82067000"
        },
        {
          "id": 108605,
          "name": "Turun\u00e7ova",
          "latitude": "36.36889000",
          "longitude": "30.13750000"
        }
      ]
    },
    {
      "id": 2185,
      "name": "Ardahan",
      "state_code": "75",
      "latitude": "41.11129640",
      "longitude": "42.78316740",
      "type": "province",
      "cities": [
        {
          "id": 107179,
          "name": "Ardahan",
          "latitude": "41.10871000",
          "longitude": "42.70222000"
        },
        {
          "id": 108853,
          "name": "\u00c7\u0131ld\u0131r \u0130l\u00e7esi",
          "latitude": "41.13783000",
          "longitude": "43.14169000"
        },
        {
          "id": 107444,
          "name": "Damal",
          "latitude": "41.34145000",
          "longitude": "42.83680000"
        },
        {
          "id": 107692,
          "name": "G\u00f6le",
          "latitude": "40.78746000",
          "longitude": "42.60603000"
        },
        {
          "id": 107788,
          "name": "Hanak",
          "latitude": "41.23344000",
          "longitude": "42.84037000"
        },
        {
          "id": 108347,
          "name": "Posof",
          "latitude": "41.51111000",
          "longitude": "42.72917000"
        }
      ]
    },
    {
      "id": 2191,
      "name": "Artvin",
      "state_code": "08",
      "latitude": "41.07866400",
      "longitude": "41.76282230",
      "type": "province",
      "cities": [
        {
          "id": 107180,
          "name": "Ardanu\u00e7",
          "latitude": "41.12738000",
          "longitude": "42.06292000"
        },
        {
          "id": 107184,
          "name": "Arhavi",
          "latitude": "41.35121000",
          "longitude": "41.30456000"
        },
        {
          "id": 107196,
          "name": "Artvin",
          "latitude": "41.18161000",
          "longitude": "41.82172000"
        },
        {
          "id": 107371,
          "name": "Bor\u00e7ka",
          "latitude": "41.35792000",
          "longitude": "41.66579000"
        },
        {
          "id": 107834,
          "name": "Hopa",
          "latitude": "41.39046000",
          "longitude": "41.41966000"
        },
        {
          "id": 107975,
          "name": "Kemalpa\u015fa",
          "latitude": "41.48336000",
          "longitude": "41.52750000"
        },
        {
          "id": 108226,
          "name": "Murgul",
          "latitude": "41.27937000",
          "longitude": "41.55514000"
        },
        {
          "id": 108940,
          "name": "\u015eav\u015fat",
          "latitude": "41.24027000",
          "longitude": "42.36109000"
        },
        {
          "id": 108455,
          "name": "Seyitler",
          "latitude": "41.19484000",
          "longitude": "41.83696000"
        },
        {
          "id": 108741,
          "name": "Yusufeli",
          "latitude": "40.82042000",
          "longitude": "41.53743000"
        }
      ]
    },
    {
      "id": 2187,
      "name": "Ayd\u0131n",
      "state_code": "09",
      "latitude": "37.81170330",
      "longitude": "28.48639630",
      "type": "province",
      "cities": [
        {
          "id": 107054,
          "name": "Acarlar",
          "latitude": "37.82444000",
          "longitude": "27.74667000"
        },
        {
          "id": 107210,
          "name": "At\u00e7a",
          "latitude": "37.88859000",
          "longitude": "28.21528000"
        },
        {
          "id": 107220,
          "name": "Ayd\u0131n",
          "latitude": "37.84501000",
          "longitude": "27.83963000"
        },
        {
          "id": 107381,
          "name": "Bozdo\u011fan",
          "latitude": "37.67134000",
          "longitude": "28.31395000"
        },
        {
          "id": 107402,
          "name": "Buharkent",
          "latitude": "37.96397000",
          "longitude": "28.74270000"
        },
        {
          "id": 108834,
          "name": "\u00c7ine",
          "latitude": "37.61266000",
          "longitude": "28.05912000"
        },
        {
          "id": 107441,
          "name": "Dalama",
          "latitude": "37.79028000",
          "longitude": "28.06639000"
        },
        {
          "id": 107454,
          "name": "Davutlar",
          "latitude": "37.73392000",
          "longitude": "27.29283000"
        },
        {
          "id": 107493,
          "name": "Didim",
          "latitude": "37.39305000",
          "longitude": "27.29357000"
        },
        {
          "id": 107553,
          "name": "Efeler",
          "latitude": "37.83835000",
          "longitude": "27.84557000"
        },
        {
          "id": 107668,
          "name": "Germencik",
          "latitude": "37.87056000",
          "longitude": "27.60283000"
        },
        {
          "id": 108897,
          "name": "\u0130ncirliova",
          "latitude": "37.85222000",
          "longitude": "27.72361000"
        },
        {
          "id": 108911,
          "name": "\u0130sabeyli",
          "latitude": "37.90147000",
          "longitude": "28.26475000"
        },
        {
          "id": 107893,
          "name": "Karacasu",
          "latitude": "37.74731000",
          "longitude": "28.59402000"
        },
        {
          "id": 107929,
          "name": "Karpuzlu",
          "latitude": "37.55861000",
          "longitude": "27.83528000"
        },
        {
          "id": 108036,
          "name": "Ko\u00e7arl\u0131",
          "latitude": "37.76113000",
          "longitude": "27.70583000"
        },
        {
          "id": 108084,
          "name": "K\u00f6\u015fk",
          "latitude": "37.85333000",
          "longitude": "28.05167000"
        },
        {
          "id": 108067,
          "name": "Ku\u015fadas\u0131",
          "latitude": "37.86014000",
          "longitude": "27.25713000"
        },
        {
          "id": 108063,
          "name": "Kuyucak",
          "latitude": "37.91330000",
          "longitude": "28.45917000"
        },
        {
          "id": 108243,
          "name": "Nazilli",
          "latitude": "37.93570000",
          "longitude": "28.30609000"
        },
        {
          "id": 108404,
          "name": "Sar\u0131kemer",
          "latitude": "37.56609000",
          "longitude": "27.36430000"
        },
        {
          "id": 108515,
          "name": "S\u00f6ke",
          "latitude": "37.74820000",
          "longitude": "27.40614000"
        },
        {
          "id": 108497,
          "name": "Sultanhisar",
          "latitude": "37.88989000",
          "longitude": "28.15436000"
        },
        {
          "id": 108567,
          "name": "Tepecik",
          "latitude": "37.82358000",
          "longitude": "27.87496000"
        },
        {
          "id": 108704,
          "name": "Yenipazar",
          "latitude": "37.82332000",
          "longitude": "28.19573000"
        }
      ]
    },
    {
      "id": 2175,
      "name": "Bal\u0131kesir",
      "state_code": "10",
      "latitude": "39.76167820",
      "longitude": "28.11226790",
      "type": "province",
      "cities": [
        {
          "id": 107138,
          "name": "Alt\u0131eyl\u00fcl \u0130l\u00e7esi",
          "latitude": "39.64099000",
          "longitude": "27.88639000"
        },
        {
          "id": 107143,
          "name": "Alt\u0131noluk",
          "latitude": "39.57944000",
          "longitude": "26.73722000"
        },
        {
          "id": 107233,
          "name": "Ayval\u0131k",
          "latitude": "39.31927000",
          "longitude": "26.69341000"
        },
        {
          "id": 107277,
          "name": "Bal\u0131kesir",
          "latitude": "39.64917000",
          "longitude": "27.88611000"
        },
        {
          "id": 107273,
          "name": "Balya",
          "latitude": "39.74861000",
          "longitude": "27.57889000"
        },
        {
          "id": 107283,
          "name": "Band\u0131rma",
          "latitude": "40.35222000",
          "longitude": "27.97667000"
        },
        {
          "id": 107354,
          "name": "Bigadi\u00e7",
          "latitude": "39.39250000",
          "longitude": "28.13111000"
        },
        {
          "id": 107412,
          "name": "Burhaniye",
          "latitude": "39.50041000",
          "longitude": "26.97269000"
        },
        {
          "id": 107532,
          "name": "Dursunbey",
          "latitude": "39.58596000",
          "longitude": "28.62568000"
        },
        {
          "id": 107550,
          "name": "Edremit",
          "latitude": "39.59611000",
          "longitude": "27.02444000"
        },
        {
          "id": 107584,
          "name": "Erdek",
          "latitude": "40.39960000",
          "longitude": "27.79348000"
        },
        {
          "id": 107705,
          "name": "G\u00f6me\u00e7",
          "latitude": "39.39016000",
          "longitude": "26.84127000"
        },
        {
          "id": 107708,
          "name": "G\u00f6nen",
          "latitude": "40.10490000",
          "longitude": "27.65399000"
        },
        {
          "id": 107806,
          "name": "Havran",
          "latitude": "39.55833000",
          "longitude": "27.09833000"
        },
        {
          "id": 108920,
          "name": "\u0130vrindi",
          "latitude": "39.58389000",
          "longitude": "27.48639000"
        },
        {
          "id": 107982,
          "name": "Kepsut",
          "latitude": "39.68889000",
          "longitude": "28.15222000"
        },
        {
          "id": 108151,
          "name": "Manyas",
          "latitude": "40.04639000",
          "longitude": "27.97000000"
        },
        {
          "id": 108155,
          "name": "Marmara",
          "latitude": "40.58633000",
          "longitude": "27.55541000"
        },
        {
          "id": 108417,
          "name": "Sava\u015ftepe",
          "latitude": "39.38319000",
          "longitude": "27.65612000"
        },
        {
          "id": 108527,
          "name": "S\u0131nd\u0131rg\u0131",
          "latitude": "39.24128000",
          "longitude": "28.17842000"
        },
        {
          "id": 108509,
          "name": "Susurluk",
          "latitude": "39.91361000",
          "longitude": "28.15778000"
        }
      ]
    },
    {
      "id": 2148,
      "name": "Bart\u0131n",
      "state_code": "74",
      "latitude": "41.58105090",
      "longitude": "32.46097940",
      "type": "province",
      "cities": [
        {
          "id": 107155,
          "name": "Amasra",
          "latitude": "41.74633000",
          "longitude": "32.38633000"
        },
        {
          "id": 107286,
          "name": "Bart\u0131n",
          "latitude": "41.63583000",
          "longitude": "32.33750000"
        },
        {
          "id": 108057,
          "name": "Kuruca\u015file",
          "latitude": "41.83781000",
          "longitude": "32.71621000"
        },
        {
          "id": 108629,
          "name": "Ulus \u0130l\u00e7esi",
          "latitude": "41.59373000",
          "longitude": "32.65066000"
        }
      ]
    },
    {
      "id": 2194,
      "name": "Batman",
      "state_code": "72",
      "latitude": "37.83624960",
      "longitude": "41.36057390",
      "type": "province",
      "cities": [
        {
          "id": 107215,
          "name": "Aviski",
          "latitude": "37.96459000",
          "longitude": "41.33119000"
        },
        {
          "id": 107225,
          "name": "Ayd\u0131nkonak",
          "latitude": "37.89461000",
          "longitude": "41.16405000"
        },
        {
          "id": 107271,
          "name": "Balp\u0131nar",
          "latitude": "37.86804000",
          "longitude": "41.05536000"
        },
        {
          "id": 107291,
          "name": "Batman",
          "latitude": "37.88738000",
          "longitude": "41.13221000"
        },
        {
          "id": 107350,
          "name": "Be\u015firi",
          "latitude": "37.91573000",
          "longitude": "41.28650000"
        },
        {
          "id": 107352,
          "name": "Be\u015fp\u0131nar",
          "latitude": "37.83709000",
          "longitude": "41.60219000"
        },
        {
          "id": 107357,
          "name": "Binatl\u0131",
          "latitude": "37.84708000",
          "longitude": "41.21608000"
        },
        {
          "id": 108824,
          "name": "\u00c7evrimova",
          "latitude": "37.84003000",
          "longitude": "41.27288000"
        },
        {
          "id": 107465,
          "name": "Demiryol",
          "latitude": "37.91751000",
          "longitude": "41.14984000"
        },
        {
          "id": 107515,
          "name": "Do\u011fankavak",
          "latitude": "37.96265000",
          "longitude": "41.22675000"
        },
        {
          "id": 107595,
          "name": "Erk\u00f6kl\u00fc",
          "latitude": "37.86182000",
          "longitude": "41.14413000"
        },
        {
          "id": 107663,
          "name": "Gerc\u00fc\u015f \u0130l\u00e7esi",
          "latitude": "37.59139000",
          "longitude": "41.33278000"
        },
        {
          "id": 107664,
          "name": "Gerdzhyush",
          "latitude": "37.56249000",
          "longitude": "41.37753000"
        },
        {
          "id": 107800,
          "name": "Hasankeyf",
          "latitude": "37.70612000",
          "longitude": "41.40480000"
        },
        {
          "id": 107827,
          "name": "Hisar",
          "latitude": "37.60094000",
          "longitude": "41.22799000"
        },
        {
          "id": 107947,
          "name": "Kayap\u0131nar",
          "latitude": "37.55762000",
          "longitude": "41.16231000"
        },
        {
          "id": 108035,
          "name": "Kozluk \u0130l\u00e7esi",
          "latitude": "38.19249000",
          "longitude": "41.48705000"
        },
        {
          "id": 108186,
          "name": "Merkez",
          "latitude": "37.84362000",
          "longitude": "41.18341000"
        },
        {
          "id": 108302,
          "name": "Oymata\u015f",
          "latitude": "37.79856000",
          "longitude": "41.02083000"
        },
        {
          "id": 108415,
          "name": "Sason",
          "latitude": "38.32767000",
          "longitude": "41.41377000"
        },
        {
          "id": 108700,
          "name": "Yenik\u00f6y",
          "latitude": "37.88042000",
          "longitude": "41.05004000"
        },
        {
          "id": 108708,
          "name": "Yenip\u0131nar",
          "latitude": "37.84291000",
          "longitude": "41.30137000"
        },
        {
          "id": 108731,
          "name": "Yola\u011fz\u0131",
          "latitude": "37.52554000",
          "longitude": "41.35340000"
        }
      ]
    },
    {
      "id": 2177,
      "name": "Bayburt",
      "state_code": "69",
      "latitude": "40.26032000",
      "longitude": "40.22804800",
      "type": "province",
      "cities": [
        {
          "id": 107226,
          "name": "Ayd\u0131ntepe",
          "latitude": "40.38325000",
          "longitude": "40.14272000"
        },
        {
          "id": 107297,
          "name": "Bayburt",
          "latitude": "40.25631000",
          "longitude": "40.22289000"
        },
        {
          "id": 107466,
          "name": "Demir\u00f6z\u00fc \u0130l\u00e7esi",
          "latitude": "40.16560000",
          "longitude": "39.89343000"
        },
        {
          "id": 108351,
          "name": "Pulur",
          "latitude": "40.16023000",
          "longitude": "39.89239000"
        }
      ]
    },
    {
      "id": 2221,
      "name": "Bilecik",
      "state_code": "11",
      "latitude": "40.05665550",
      "longitude": "30.06652360",
      "type": "province",
      "cities": [
        {
          "id": 107356,
          "name": "Bilecik",
          "latitude": "40.14192000",
          "longitude": "29.97932000"
        },
        {
          "id": 107393,
          "name": "Boz\u00fcy\u00fck",
          "latitude": "39.90778000",
          "longitude": "30.03667000"
        },
        {
          "id": 107505,
          "name": "Dodurga",
          "latitude": "39.79972000",
          "longitude": "29.91722000"
        },
        {
          "id": 107702,
          "name": "G\u00f6lpazar\u0131",
          "latitude": "40.28472000",
          "longitude": "30.31722000"
        },
        {
          "id": 108903,
          "name": "\u0130nhisar",
          "latitude": "40.04932000",
          "longitude": "30.38521000"
        },
        {
          "id": 108086,
          "name": "K\u00fcpl\u00fc",
          "latitude": "40.09837000",
          "longitude": "30.00010000"
        },
        {
          "id": 108291,
          "name": "Osmaneli",
          "latitude": "40.35722000",
          "longitude": "30.01417000"
        },
        {
          "id": 108329,
          "name": "Pazaryeri",
          "latitude": "39.99395000",
          "longitude": "29.90424000"
        },
        {
          "id": 108518,
          "name": "S\u00f6\u011f\u00fct \u0130l\u00e7esi",
          "latitude": "40.02479000",
          "longitude": "30.17300000"
        },
        {
          "id": 108650,
          "name": "Vezirhan",
          "latitude": "40.24472000",
          "longitude": "30.02000000"
        },
        {
          "id": 108705,
          "name": "Yenipazar",
          "latitude": "40.17833000",
          "longitude": "30.52000000"
        }
      ]
    },
    {
      "id": 2153,
      "name": "Bing\u00f6l",
      "state_code": "12",
      "latitude": "39.06263540",
      "longitude": "40.76960950",
      "type": "province",
      "cities": [
        {
          "id": 107060,
          "name": "Adakl\u0131 \u0130l\u00e7esi",
          "latitude": "39.22870000",
          "longitude": "40.48252000"
        },
        {
          "id": 107358,
          "name": "Bing\u00f6l",
          "latitude": "38.88472000",
          "longitude": "40.49389000"
        },
        {
          "id": 107661,
          "name": "Gen\u00e7",
          "latitude": "38.74773000",
          "longitude": "40.55343000"
        },
        {
          "id": 107927,
          "name": "Karl\u0131ova",
          "latitude": "39.29044000",
          "longitude": "41.00594000"
        },
        {
          "id": 108002,
          "name": "Ki\u011f\u0131 \u0130l\u00e7esi",
          "latitude": "39.30894000",
          "longitude": "40.34995000"
        },
        {
          "id": 108182,
          "name": "Merkez",
          "latitude": "38.95025000",
          "longitude": "40.52802000"
        },
        {
          "id": 108483,
          "name": "Solhan",
          "latitude": "38.96525000",
          "longitude": "41.05443000"
        },
        {
          "id": 108681,
          "name": "Yayladere",
          "latitude": "39.22614000",
          "longitude": "40.06950000"
        },
        {
          "id": 108688,
          "name": "Yedisu",
          "latitude": "39.43277000",
          "longitude": "40.53368000"
        }
      ]
    },
    {
      "id": 2215,
      "name": "Bitlis",
      "state_code": "13",
      "latitude": "38.65231330",
      "longitude": "42.42020280",
      "type": "province",
      "cities": [
        {
          "id": 107065,
          "name": "Adilcevaz",
          "latitude": "38.79911000",
          "longitude": "42.73159000"
        },
        {
          "id": 107071,
          "name": "Ahlat",
          "latitude": "38.74890000",
          "longitude": "42.48007000"
        },
        {
          "id": 107347,
          "name": "Be\u011fendik",
          "latitude": "37.97557000",
          "longitude": "42.64823000"
        },
        {
          "id": 107364,
          "name": "Bitlis",
          "latitude": "38.40115000",
          "longitude": "42.10784000"
        },
        {
          "id": 107751,
          "name": "G\u00fcroymak",
          "latitude": "38.57580000",
          "longitude": "42.01558000"
        },
        {
          "id": 107829,
          "name": "Hizan",
          "latitude": "38.22498000",
          "longitude": "42.41830000"
        },
        {
          "id": 108189,
          "name": "Merkez",
          "latitude": "38.31702000",
          "longitude": "42.10065000"
        },
        {
          "id": 108233,
          "name": "Mutki",
          "latitude": "38.40624000",
          "longitude": "41.92018000"
        },
        {
          "id": 108538,
          "name": "Tatvan",
          "latitude": "38.49221000",
          "longitude": "42.28269000"
        }
      ]
    },
    {
      "id": 2172,
      "name": "Bolu",
      "state_code": "14",
      "latitude": "40.57597660",
      "longitude": "31.57880860",
      "type": "province",
      "cities": [
        {
          "id": 107366,
          "name": "Bolu",
          "latitude": "40.73583000",
          "longitude": "31.60611000"
        },
        {
          "id": 107537,
          "name": "D\u00f6rtdivan",
          "latitude": "40.72052000",
          "longitude": "32.06314000"
        },
        {
          "id": 107665,
          "name": "Gerede",
          "latitude": "40.71364000",
          "longitude": "32.31263000"
        },
        {
          "id": 107719,
          "name": "G\u00f6yn\u00fck",
          "latitude": "40.40028000",
          "longitude": "30.78833000"
        },
        {
          "id": 108096,
          "name": "K\u0131br\u0131sc\u0131k",
          "latitude": "40.40778000",
          "longitude": "31.85194000"
        },
        {
          "id": 108172,
          "name": "Mengen",
          "latitude": "40.93877000",
          "longitude": "32.07642000"
        },
        {
          "id": 108218,
          "name": "Mudurnu",
          "latitude": "40.47300000",
          "longitude": "31.20755000"
        },
        {
          "id": 108421,
          "name": "Seben",
          "latitude": "40.41134000",
          "longitude": "31.57359000"
        },
        {
          "id": 108709,
          "name": "Yeni\u00e7a\u011fa",
          "latitude": "40.77115000",
          "longitude": "32.03375000"
        }
      ]
    },
    {
      "id": 2209,
      "name": "Burdur",
      "state_code": "15",
      "latitude": "37.46126690",
      "longitude": "30.06652360",
      "type": "province",
      "cities": [
        {
          "id": 107241,
          "name": "A\u011flasun",
          "latitude": "37.64944000",
          "longitude": "30.53417000"
        },
        {
          "id": 107148,
          "name": "Alt\u0131nyayla",
          "latitude": "36.99722000",
          "longitude": "29.54579000"
        },
        {
          "id": 107400,
          "name": "Bucak",
          "latitude": "37.45917000",
          "longitude": "30.59500000"
        },
        {
          "id": 107411,
          "name": "Burdur",
          "latitude": "37.72028000",
          "longitude": "30.29083000"
        },
        {
          "id": 108793,
          "name": "\u00c7avd\u0131r \u0130l\u00e7esi",
          "latitude": "37.16483000",
          "longitude": "29.69937000"
        },
        {
          "id": 108817,
          "name": "\u00c7eltik\u00e7i \u0130l\u00e7esi",
          "latitude": "37.53885000",
          "longitude": "30.46823000"
        },
        {
          "id": 107695,
          "name": "G\u00f6lhisar",
          "latitude": "37.14590000",
          "longitude": "29.50876000"
        },
        {
          "id": 107906,
          "name": "Karamanl\u0131",
          "latitude": "37.37301000",
          "longitude": "29.82308000"
        },
        {
          "id": 107977,
          "name": "Kemer",
          "latitude": "37.35222000",
          "longitude": "30.06306000"
        },
        {
          "id": 108116,
          "name": "K\u0131z\u0131lkaya",
          "latitude": "37.30361000",
          "longitude": "30.44417000"
        },
        {
          "id": 108005,
          "name": "Kocaaliler",
          "latitude": "37.31694000",
          "longitude": "30.74000000"
        },
        {
          "id": 108180,
          "name": "Merkez",
          "latitude": "37.62762000",
          "longitude": "30.20408000"
        },
        {
          "id": 108556,
          "name": "Tefenni",
          "latitude": "37.30968000",
          "longitude": "29.77538000"
        },
        {
          "id": 108726,
          "name": "Ye\u015filova",
          "latitude": "37.50806000",
          "longitude": "29.75472000"
        }
      ]
    },
    {
      "id": 2163,
      "name": "Bursa",
      "state_code": "16",
      "latitude": "40.06554590",
      "longitude": "29.23207840",
      "type": "province",
      "cities": [
        {
          "id": 107123,
          "name": "Alanyurt",
          "latitude": "40.10881000",
          "longitude": "29.51871000"
        },
        {
          "id": 107269,
          "name": "Balarim",
          "latitude": "40.37381000",
          "longitude": "29.59025000"
        },
        {
          "id": 107374,
          "name": "Boyal\u0131ca",
          "latitude": "40.48194000",
          "longitude": "29.56083000"
        },
        {
          "id": 107414,
          "name": "Bursa",
          "latitude": "40.19559000",
          "longitude": "29.06013000"
        },
        {
          "id": 107419,
          "name": "B\u00fcy\u00fckorhan \u0130l\u00e7esi",
          "latitude": "39.78223000",
          "longitude": "28.89338000"
        },
        {
          "id": 108757,
          "name": "\u00c7ak\u0131rca",
          "latitude": "40.47056000",
          "longitude": "29.66333000"
        },
        {
          "id": 108758,
          "name": "\u00c7ak\u0131rl\u0131",
          "latitude": "40.51806000",
          "longitude": "29.45222000"
        },
        {
          "id": 107426,
          "name": "Cerrah",
          "latitude": "40.07124000",
          "longitude": "29.44661000"
        },
        {
          "id": 107464,
          "name": "Demirta\u015f",
          "latitude": "40.27194000",
          "longitude": "29.09833000"
        },
        {
          "id": 107560,
          "name": "Elbeyli",
          "latitude": "40.48611000",
          "longitude": "29.72472000"
        },
        {
          "id": 107660,
          "name": "Gemlik",
          "latitude": "40.43510000",
          "longitude": "29.14943000"
        },
        {
          "id": 107756,
          "name": "G\u00fcrsu",
          "latitude": "40.25498000",
          "longitude": "29.21183000"
        },
        {
          "id": 107785,
          "name": "Hamzabey",
          "latitude": "40.13583000",
          "longitude": "29.52639000"
        },
        {
          "id": 107795,
          "name": "Harmanc\u0131k \u0130l\u00e7esi",
          "latitude": "39.67743000",
          "longitude": "29.15523000"
        },
        {
          "id": 108901,
          "name": "\u0130negol",
          "latitude": "40.07806000",
          "longitude": "29.51333000"
        },
        {
          "id": 108925,
          "name": "\u0130znik",
          "latitude": "40.42861000",
          "longitude": "29.72111000"
        },
        {
          "id": 107890,
          "name": "Karacabey",
          "latitude": "40.21323000",
          "longitude": "28.36120000"
        },
        {
          "id": 107935,
          "name": "Kar\u0131ncal\u0131",
          "latitude": "39.97118000",
          "longitude": "28.85894000"
        },
        {
          "id": 107967,
          "name": "Keles",
          "latitude": "39.91361000",
          "longitude": "29.22944000"
        },
        {
          "id": 107987,
          "name": "Kestel",
          "latitude": "40.19828000",
          "longitude": "29.21237000"
        },
        {
          "id": 108001,
          "name": "Kirazl\u0131",
          "latitude": "40.09964000",
          "longitude": "29.04163000"
        },
        {
          "id": 108094,
          "name": "K\u00fc\u00e7\u00fckkumla",
          "latitude": "40.47047000",
          "longitude": "29.10152000"
        },
        {
          "id": 108059,
          "name": "Kur\u015funlu",
          "latitude": "40.03712000",
          "longitude": "29.65972000"
        },
        {
          "id": 108217,
          "name": "Mudanya",
          "latitude": "40.33342000",
          "longitude": "28.77218000"
        },
        {
          "id": 108230,
          "name": "Mustafakemalpa\u015fa",
          "latitude": "40.03815000",
          "longitude": "28.40866000"
        },
        {
          "id": 108239,
          "name": "Narl\u0131ca",
          "latitude": "40.38583000",
          "longitude": "29.48111000"
        },
        {
          "id": 108249,
          "name": "Nil\u00fcfer",
          "latitude": "40.21375000",
          "longitude": "28.98464000"
        },
        {
          "id": 108272,
          "name": "Orhaneli",
          "latitude": "39.90333000",
          "longitude": "28.99056000"
        },
        {
          "id": 108274,
          "name": "Orhangazi",
          "latitude": "40.48917000",
          "longitude": "29.30889000"
        },
        {
          "id": 108293,
          "name": "Osmangazi",
          "latitude": "40.15644000",
          "longitude": "29.08753000"
        },
        {
          "id": 108517,
          "name": "S\u00f6l\u00f6z",
          "latitude": "40.39480000",
          "longitude": "29.41559000"
        },
        {
          "id": 108529,
          "name": "Tacir",
          "latitude": "40.52556000",
          "longitude": "29.73972000"
        },
        {
          "id": 108530,
          "name": "Tahtak\u00f6pr\u00fc",
          "latitude": "39.95000000",
          "longitude": "29.65000000"
        },
        {
          "id": 108537,
          "name": "Tatkavakl\u0131",
          "latitude": "40.03333000",
          "longitude": "28.36667000"
        },
        {
          "id": 108632,
          "name": "Umurbey",
          "latitude": "40.41472000",
          "longitude": "29.18306000"
        },
        {
          "id": 108692,
          "name": "Yenice",
          "latitude": "40.08778000",
          "longitude": "29.42194000"
        },
        {
          "id": 108702,
          "name": "Yenik\u00f6y",
          "latitude": "40.53568000",
          "longitude": "29.35364000"
        },
        {
          "id": 108714,
          "name": "Yeni\u015fehir",
          "latitude": "40.26444000",
          "longitude": "29.65306000"
        },
        {
          "id": 108746,
          "name": "Y\u0131ld\u0131r\u0131m \u0130l\u00e7esi",
          "latitude": "40.19567000",
          "longitude": "29.03640000"
        }
      ]
    },
    {
      "id": 2216,
      "name": "\u00c7anakkale",
      "state_code": "17",
      "latitude": "40.05101040",
      "longitude": "26.98524220",
      "type": "province",
      "cities": [
        {
          "id": 107229,
          "name": "Ayvac\u0131k",
          "latitude": "39.60111000",
          "longitude": "26.40472000"
        },
        {
          "id": 107301,
          "name": "Bayrami\u00e7 \u0130l\u00e7esi",
          "latitude": "39.81951000",
          "longitude": "26.62490000"
        },
        {
          "id": 107325,
          "name": "Behram",
          "latitude": "39.49344000",
          "longitude": "26.33316000"
        },
        {
          "id": 107353,
          "name": "Biga",
          "latitude": "40.26921000",
          "longitude": "27.20841000"
        },
        {
          "id": 107380,
          "name": "Bozcaada",
          "latitude": "39.82409000",
          "longitude": "26.04069000"
        },
        {
          "id": 108773,
          "name": "\u00c7an",
          "latitude": "40.03328000",
          "longitude": "27.05236000"
        },
        {
          "id": 108775,
          "name": "\u00c7anakkale",
          "latitude": "40.15552000",
          "longitude": "26.41271000"
        },
        {
          "id": 107548,
          "name": "Eceabat",
          "latitude": "40.18416000",
          "longitude": "26.35740000"
        },
        {
          "id": 107623,
          "name": "Ezine",
          "latitude": "39.78561000",
          "longitude": "26.34083000"
        },
        {
          "id": 107655,
          "name": "Gelibolu",
          "latitude": "40.41028000",
          "longitude": "26.67083000"
        },
        {
          "id": 107672,
          "name": "Geyikli",
          "latitude": "39.80472000",
          "longitude": "26.20750000"
        },
        {
          "id": 107683,
          "name": "G\u00f6k\u00e7eada",
          "latitude": "40.16523000",
          "longitude": "25.85907000"
        },
        {
          "id": 107782,
          "name": "Hamdibey",
          "latitude": "39.84944000",
          "longitude": "27.24806000"
        },
        {
          "id": 107878,
          "name": "Kalk\u0131m",
          "latitude": "39.81167000",
          "longitude": "27.21500000"
        },
        {
          "id": 108127,
          "name": "Lapseki",
          "latitude": "40.34417000",
          "longitude": "26.68556000"
        },
        {
          "id": 108135,
          "name": "L\u00e2pseki \u0130l\u00e7esi",
          "latitude": "40.35280000",
          "longitude": "26.70657000"
        },
        {
          "id": 108193,
          "name": "Merkez",
          "latitude": "40.05093000",
          "longitude": "26.49489000"
        },
        {
          "id": 108691,
          "name": "Yenice",
          "latitude": "39.93083000",
          "longitude": "27.25806000"
        }
      ]
    },
    {
      "id": 2168,
      "name": "\u00c7ank\u0131r\u0131",
      "state_code": "18",
      "latitude": "40.53690730",
      "longitude": "33.58838930",
      "type": "province",
      "cities": [
        {
          "id": 107208,
          "name": "Atkaracalar",
          "latitude": "40.81593000",
          "longitude": "33.07556000"
        },
        {
          "id": 107303,
          "name": "Bayram\u00f6ren",
          "latitude": "40.94329000",
          "longitude": "33.20300000"
        },
        {
          "id": 108820,
          "name": "\u00c7erke\u015f",
          "latitude": "40.81164000",
          "longitude": "32.89358000"
        },
        {
          "id": 107564,
          "name": "Eldivan",
          "latitude": "40.52975000",
          "longitude": "33.49903000"
        },
        {
          "id": 107844,
          "name": "Ilgaz",
          "latitude": "40.92511000",
          "longitude": "33.62586000"
        },
        {
          "id": 107995,
          "name": "Khanjarah",
          "latitude": "40.59995000",
          "longitude": "33.61530000"
        },
        {
          "id": 108122,
          "name": "K\u0131z\u0131l\u0131rmak",
          "latitude": "40.34556000",
          "longitude": "33.98639000"
        },
        {
          "id": 108020,
          "name": "Korgun",
          "latitude": "40.73479000",
          "longitude": "33.51844000"
        },
        {
          "id": 108060,
          "name": "Kur\u015funlu",
          "latitude": "40.84101000",
          "longitude": "33.26028000"
        },
        {
          "id": 108276,
          "name": "Orta",
          "latitude": "40.62420000",
          "longitude": "33.10928000"
        },
        {
          "id": 108928,
          "name": "\u015eaban\u00f6z\u00fc",
          "latitude": "40.48333000",
          "longitude": "33.28333000"
        },
        {
          "id": 108673,
          "name": "Yaprakl\u0131",
          "latitude": "40.75785000",
          "longitude": "33.77819000"
        }
      ]
    },
    {
      "id": 2173,
      "name": "\u00c7orum",
      "state_code": "19",
      "latitude": "40.49982110",
      "longitude": "34.59862630",
      "type": "province",
      "cities": [
        {
          "id": 107117,
          "name": "Alaca",
          "latitude": "40.16833000",
          "longitude": "34.84250000"
        },
        {
          "id": 107294,
          "name": "Bayat",
          "latitude": "40.64583000",
          "longitude": "34.26139000"
        },
        {
          "id": 107395,
          "name": "Bo\u011fazkale \u0130l\u00e7esi",
          "latitude": "40.03031000",
          "longitude": "34.61745000"
        },
        {
          "id": 108843,
          "name": "\u00c7orum",
          "latitude": "40.54889000",
          "longitude": "34.95333000"
        },
        {
          "id": 107506,
          "name": "Dodurga",
          "latitude": "40.85489000",
          "longitude": "34.80703000"
        },
        {
          "id": 108915,
          "name": "\u0130skilip",
          "latitude": "40.73528000",
          "longitude": "34.47389000"
        },
        {
          "id": 107924,
          "name": "Karg\u0131 \u0130l\u00e7esi",
          "latitude": "41.14377000",
          "longitude": "34.49342000"
        },
        {
          "id": 108128,
          "name": "La\u00e7in",
          "latitude": "40.77486000",
          "longitude": "34.88068000"
        },
        {
          "id": 108167,
          "name": "Mecit\u00f6z\u00fc",
          "latitude": "40.52000000",
          "longitude": "35.29528000"
        },
        {
          "id": 108185,
          "name": "Merkez",
          "latitude": "40.50905000",
          "longitude": "34.85791000"
        },
        {
          "id": 108305,
          "name": "O\u011fuzlar \u0130l\u00e7esi",
          "latitude": "40.76323000",
          "longitude": "34.70813000"
        },
        {
          "id": 108286,
          "name": "Ortak\u00f6y",
          "latitude": "40.27352000",
          "longitude": "35.25175000"
        },
        {
          "id": 108290,
          "name": "Osmanc\u0131k",
          "latitude": "41.00240000",
          "longitude": "34.78243000"
        },
        {
          "id": 108505,
          "name": "Sungurlu",
          "latitude": "40.18213000",
          "longitude": "34.28217000"
        },
        {
          "id": 108642,
          "name": "U\u011furluda\u011f",
          "latitude": "40.44631000",
          "longitude": "34.45259000"
        }
      ]
    },
    {
      "id": 2157,
      "name": "Denizli",
      "state_code": "20",
      "latitude": "37.61283950",
      "longitude": "29.23207840",
      "type": "province",
      "cities": [
        {
          "id": 107057,
          "name": "Ac\u0131payam",
          "latitude": "37.42385000",
          "longitude": "29.34941000"
        },
        {
          "id": 107084,
          "name": "Akkent",
          "latitude": "38.15268000",
          "longitude": "29.37890000"
        },
        {
          "id": 107086,
          "name": "Akk\u00f6y",
          "latitude": "37.95694000",
          "longitude": "29.07813000"
        },
        {
          "id": 107252,
          "name": "Babada\u011f",
          "latitude": "37.80764000",
          "longitude": "28.85665000"
        },
        {
          "id": 107265,
          "name": "Baklan",
          "latitude": "37.97694000",
          "longitude": "29.60861000"
        },
        {
          "id": 107326,
          "name": "Bekilli",
          "latitude": "38.24027000",
          "longitude": "29.42559000"
        },
        {
          "id": 107334,
          "name": "Beya\u011fa\u00e7 \u0130l\u00e7esi",
          "latitude": "37.24546000",
          "longitude": "28.90041000"
        },
        {
          "id": 107384,
          "name": "Bozkurt",
          "latitude": "37.77583000",
          "longitude": "29.60811000"
        },
        {
          "id": 107408,
          "name": "Buldan",
          "latitude": "38.04500000",
          "longitude": "28.83056000"
        },
        {
          "id": 108759,
          "name": "\u00c7al \u0130l\u00e7esi",
          "latitude": "38.09371000",
          "longitude": "29.40467000"
        },
        {
          "id": 108767,
          "name": "\u00c7ameli \u0130l\u00e7esi",
          "latitude": "37.08660000",
          "longitude": "29.35225000"
        },
        {
          "id": 108781,
          "name": "\u00c7ardak",
          "latitude": "37.77485000",
          "longitude": "29.70593000"
        },
        {
          "id": 108836,
          "name": "\u00c7ivril",
          "latitude": "38.30139000",
          "longitude": "29.73861000"
        },
        {
          "id": 107470,
          "name": "Denizli",
          "latitude": "37.77417000",
          "longitude": "29.08750000"
        },
        {
          "id": 107721,
          "name": "G\u00f6zler",
          "latitude": "38.10679000",
          "longitude": "29.15375000"
        },
        {
          "id": 107742,
          "name": "G\u00fcney \u0130l\u00e7esi",
          "latitude": "38.16454000",
          "longitude": "29.07324000"
        },
        {
          "id": 107833,
          "name": "Honaz",
          "latitude": "37.77146000",
          "longitude": "29.34466000"
        },
        {
          "id": 107871,
          "name": "Kale",
          "latitude": "37.43917000",
          "longitude": "28.84528000"
        },
        {
          "id": 108196,
          "name": "Merkezefendi",
          "latitude": "37.80544000",
          "longitude": "29.04236000"
        },
        {
          "id": 108247,
          "name": "Nikfer",
          "latitude": "37.40542000",
          "longitude": "29.13727000"
        },
        {
          "id": 108310,
          "name": "Pamukkale",
          "latitude": "37.91644000",
          "longitude": "29.11729000"
        },
        {
          "id": 108393,
          "name": "Sarayk\u00f6y",
          "latitude": "37.91580000",
          "longitude": "28.87999000"
        },
        {
          "id": 108442,
          "name": "Serinhisar",
          "latitude": "37.58105000",
          "longitude": "29.26639000"
        },
        {
          "id": 108540,
          "name": "Tavas",
          "latitude": "37.57351000",
          "longitude": "29.07058000"
        }
      ]
    },
    {
      "id": 2226,
      "name": "Diyarbak\u0131r",
      "state_code": "21",
      "latitude": "38.10663720",
      "longitude": "40.54268960",
      "type": "province",
      "cities": [
        {
          "id": 107119,
          "name": "Alacakaya \u0130l\u00e7esi",
          "latitude": "38.46326000",
          "longitude": "39.85514000"
        },
        {
          "id": 107142,
          "name": "Alt\u0131nkum",
          "latitude": "38.26374000",
          "longitude": "41.06250000"
        },
        {
          "id": 107158,
          "name": "Ambar",
          "latitude": "37.85305000",
          "longitude": "40.52798000"
        },
        {
          "id": 107172,
          "name": "Aral\u0131k",
          "latitude": "37.82945000",
          "longitude": "40.68025000"
        },
        {
          "id": 107309,
          "name": "Ba\u011flar",
          "latitude": "37.91068000",
          "longitude": "40.22627000"
        },
        {
          "id": 107362,
          "name": "Bismil",
          "latitude": "37.84514000",
          "longitude": "40.65931000"
        },
        {
          "id": 108822,
          "name": "\u00c7ermik",
          "latitude": "38.13538000",
          "longitude": "39.44500000"
        },
        {
          "id": 108854,
          "name": "\u00c7\u0131nar \u0130l\u00e7esi",
          "latitude": "37.72562000",
          "longitude": "40.41484000"
        },
        {
          "id": 108851,
          "name": "\u00c7\u00fcng\u00fc\u015f",
          "latitude": "38.20798000",
          "longitude": "39.28554000"
        },
        {
          "id": 107491,
          "name": "Dicle",
          "latitude": "38.36571000",
          "longitude": "40.06450000"
        },
        {
          "id": 107504,
          "name": "Diyarbak\u0131r",
          "latitude": "37.91363000",
          "longitude": "40.21721000"
        },
        {
          "id": 107625,
          "name": "E\u011fil",
          "latitude": "38.25748000",
          "longitude": "40.07435000"
        },
        {
          "id": 107592,
          "name": "Ergani",
          "latitude": "38.26899000",
          "longitude": "39.75446000"
        },
        {
          "id": 107790,
          "name": "Hani",
          "latitude": "38.40741000",
          "longitude": "40.38578000"
        },
        {
          "id": 107817,
          "name": "Hazro",
          "latitude": "38.24903000",
          "longitude": "40.77129000"
        },
        {
          "id": 107948,
          "name": "Kayap\u0131nar",
          "latitude": "37.93800000",
          "longitude": "40.17310000"
        },
        {
          "id": 107957,
          "name": "Kazanc\u0131",
          "latitude": "37.77106000",
          "longitude": "40.60000000"
        },
        {
          "id": 107984,
          "name": "Kerh",
          "latitude": "37.82570000",
          "longitude": "40.54402000"
        },
        {
          "id": 108008,
          "name": "Kocak\u00f6y",
          "latitude": "38.28889000",
          "longitude": "40.49786000"
        },
        {
          "id": 108082,
          "name": "K\u00f6seli",
          "latitude": "37.83879000",
          "longitude": "40.60811000"
        },
        {
          "id": 108040,
          "name": "Kulp",
          "latitude": "38.49754000",
          "longitude": "41.00668000"
        },
        {
          "id": 108130,
          "name": "Lice",
          "latitude": "38.45821000",
          "longitude": "40.63888000"
        },
        {
          "id": 108375,
          "name": "Salat",
          "latitude": "37.84172000",
          "longitude": "40.88650000"
        },
        {
          "id": 108463,
          "name": "Silvan",
          "latitude": "38.13708000",
          "longitude": "41.00817000"
        },
        {
          "id": 108467,
          "name": "Sinank\u00f6y",
          "latitude": "37.86166000",
          "longitude": "40.99283000"
        },
        {
          "id": 108506,
          "name": "Sur",
          "latitude": "37.91356000",
          "longitude": "40.23743000"
        },
        {
          "id": 108672,
          "name": "Yaprakba\u015f\u0131",
          "latitude": "37.65409000",
          "longitude": "40.54635000"
        },
        {
          "id": 108716,
          "name": "Yeni\u015fehir",
          "latitude": "37.91373000",
          "longitude": "40.20610000"
        }
      ]
    },
    {
      "id": 2202,
      "name": "D\u00fczce",
      "state_code": "81",
      "latitude": "40.87705310",
      "longitude": "31.31927130",
      "type": "province",
      "cities": [
        {
          "id": 107110,
          "name": "Ak\u00e7akoca",
          "latitude": "41.08663000",
          "longitude": "31.11623000"
        },
        {
          "id": 108833,
          "name": "\u00c7ilimli \u0130l\u00e7esi",
          "latitude": "40.90267000",
          "longitude": "31.05913000"
        },
        {
          "id": 107438,
          "name": "Cumayeri \u0130l\u00e7esi",
          "latitude": "40.88176000",
          "longitude": "30.94094000"
        },
        {
          "id": 107542,
          "name": "D\u00fczce",
          "latitude": "40.83889000",
          "longitude": "31.16389000"
        },
        {
          "id": 107704,
          "name": "G\u00f6lyaka \u0130l\u00e7esi",
          "latitude": "40.78644000",
          "longitude": "31.00276000"
        },
        {
          "id": 107739,
          "name": "G\u00fcm\u00fc\u015fova \u0130l\u00e7esi",
          "latitude": "40.85640000",
          "longitude": "30.94935000"
        },
        {
          "id": 107953,
          "name": "Kayna\u015fl\u0131 \u0130l\u00e7esi",
          "latitude": "40.77908000",
          "longitude": "31.31135000"
        },
        {
          "id": 108748,
          "name": "Y\u0131\u011f\u0131lca \u0130l\u00e7esi",
          "latitude": "40.96497000",
          "longitude": "31.45672000"
        }
      ]
    },
    {
      "id": 2151,
      "name": "Edirne",
      "state_code": "22",
      "latitude": "41.15172220",
      "longitude": "26.51379640",
      "type": "province",
      "cities": [
        {
          "id": 107549,
          "name": "Edirne",
          "latitude": "41.67719000",
          "longitude": "26.55597000"
        },
        {
          "id": 107580,
          "name": "Enez",
          "latitude": "40.72472000",
          "longitude": "26.08250000"
        },
        {
          "id": 107807,
          "name": "Havsa",
          "latitude": "41.54898000",
          "longitude": "26.82207000"
        },
        {
          "id": 108909,
          "name": "\u0130psala",
          "latitude": "40.92115000",
          "longitude": "26.38273000"
        },
        {
          "id": 107992,
          "name": "Ke\u015fan",
          "latitude": "40.85583000",
          "longitude": "26.63028000"
        },
        {
          "id": 108087,
          "name": "K\u00fcpl\u00fc",
          "latitude": "41.10694000",
          "longitude": "26.35194000"
        },
        {
          "id": 108133,
          "name": "L\u00e2lapa\u015fa",
          "latitude": "41.83951000",
          "longitude": "26.73561000"
        },
        {
          "id": 108176,
          "name": "Meri\u00e7",
          "latitude": "41.19183000",
          "longitude": "26.42097000"
        },
        {
          "id": 108523,
          "name": "S\u00fclo\u011flu \u0130l\u00e7esi",
          "latitude": "41.77956000",
          "longitude": "26.92602000"
        },
        {
          "id": 108640,
          "name": "Uzunk\u00f6pr\u00fc",
          "latitude": "41.26597000",
          "longitude": "26.68850000"
        }
      ]
    },
    {
      "id": 2159,
      "name": "Elaz\u0131\u011f",
      "state_code": "23",
      "latitude": "38.49648040",
      "longitude": "39.21990290",
      "type": "province",
      "cities": [
        {
          "id": 107246,
          "name": "A\u011f\u0131n",
          "latitude": "38.93792000",
          "longitude": "38.71155000"
        },
        {
          "id": 107197,
          "name": "Ar\u0131cak",
          "latitude": "38.56340000",
          "longitude": "40.12480000"
        },
        {
          "id": 107288,
          "name": "Baskil",
          "latitude": "38.56866000",
          "longitude": "38.81634000"
        },
        {
          "id": 107558,
          "name": "Elaz\u0131\u011f",
          "latitude": "38.67431000",
          "longitude": "39.22321000"
        },
        {
          "id": 107901,
          "name": "Karako\u00e7an",
          "latitude": "38.95178000",
          "longitude": "40.02706000"
        },
        {
          "id": 107902,
          "name": "Karako\u00e7an / Elaz\u0131\u011f",
          "latitude": "38.95527000",
          "longitude": "40.04053000"
        },
        {
          "id": 107964,
          "name": "Keban",
          "latitude": "38.79380000",
          "longitude": "38.73517000"
        },
        {
          "id": 108027,
          "name": "Kovanc\u0131lar",
          "latitude": "38.71882000",
          "longitude": "39.86268000"
        },
        {
          "id": 108137,
          "name": "Maden \u0130l\u00e7esi",
          "latitude": "38.39354000",
          "longitude": "39.67252000"
        },
        {
          "id": 108188,
          "name": "Merkez",
          "latitude": "38.66790000",
          "longitude": "39.21567000"
        },
        {
          "id": 108308,
          "name": "Palu",
          "latitude": "38.69135000",
          "longitude": "39.91984000"
        },
        {
          "id": 108479,
          "name": "Sivrice",
          "latitude": "38.44223000",
          "longitude": "39.30938000"
        },
        {
          "id": 108604,
          "name": "Turluk",
          "latitude": "39.44034000",
          "longitude": "39.87773000"
        }
      ]
    },
    {
      "id": 2160,
      "name": "Erzincan",
      "state_code": "24",
      "latitude": "39.76819140",
      "longitude": "39.05013060",
      "type": "province",
      "cities": [
        {
          "id": 108806,
          "name": "\u00c7ay\u0131rl\u0131 \u0130l\u00e7esi",
          "latitude": "39.80454000",
          "longitude": "40.03724000"
        },
        {
          "id": 107433,
          "name": "Cimin",
          "latitude": "39.70947000",
          "longitude": "39.70015000"
        },
        {
          "id": 107602,
          "name": "Erzincan",
          "latitude": "39.73919000",
          "longitude": "39.49015000"
        },
        {
          "id": 108890,
          "name": "\u0130li\u00e7 \u0130l\u00e7esi",
          "latitude": "39.45587000",
          "longitude": "38.56409000"
        },
        {
          "id": 107971,
          "name": "Kemah",
          "latitude": "39.59606000",
          "longitude": "39.02329000"
        },
        {
          "id": 107973,
          "name": "Kemaliye",
          "latitude": "39.26288000",
          "longitude": "38.49674000"
        },
        {
          "id": 108295,
          "name": "Otlukbeli",
          "latitude": "39.97000000",
          "longitude": "40.01872000"
        },
        {
          "id": 108365,
          "name": "Refahiye",
          "latitude": "39.89315000",
          "longitude": "38.76607000"
        },
        {
          "id": 108570,
          "name": "Tercan",
          "latitude": "39.77709000",
          "longitude": "40.37783000"
        },
        {
          "id": 108876,
          "name": "\u00dcz\u00fcml\u00fc \u0130l\u00e7esi",
          "latitude": "39.70943000",
          "longitude": "39.70125000"
        }
      ]
    },
    {
      "id": 2165,
      "name": "Erzurum",
      "state_code": "25",
      "latitude": "40.07467990",
      "longitude": "41.66945620",
      "type": "province",
      "cities": [
        {
          "id": 107250,
          "name": "A\u015fkale",
          "latitude": "39.92083000",
          "longitude": "40.69500000"
        },
        {
          "id": 107237,
          "name": "Aziziye",
          "latitude": "39.94028000",
          "longitude": "41.11153000"
        },
        {
          "id": 108786,
          "name": "\u00c7at \u0130l\u00e7esi",
          "latitude": "39.61055000",
          "longitude": "40.97851000"
        },
        {
          "id": 107603,
          "name": "Erzurum",
          "latitude": "39.90861000",
          "longitude": "41.27694000"
        },
        {
          "id": 107842,
          "name": "H\u0131n\u0131s",
          "latitude": "39.35766000",
          "longitude": "41.69253000"
        },
        {
          "id": 107836,
          "name": "Horasan",
          "latitude": "40.03885000",
          "longitude": "42.16366000"
        },
        {
          "id": 107848,
          "name": "Il\u0131ca",
          "latitude": "39.94653000",
          "longitude": "41.09520000"
        },
        {
          "id": 108918,
          "name": "\u0130spir",
          "latitude": "40.47981000",
          "longitude": "40.99373000"
        },
        {
          "id": 107921,
          "name": "Kara\u00e7oban",
          "latitude": "39.34364000",
          "longitude": "42.09918000"
        },
        {
          "id": 107919,
          "name": "Karayaz\u0131",
          "latitude": "39.69604000",
          "longitude": "42.14277000"
        },
        {
          "id": 108076,
          "name": "K\u00f6pr\u00fck\u00f6y \u0130l\u00e7esi",
          "latitude": "39.97178000",
          "longitude": "41.86804000"
        },
        {
          "id": 108241,
          "name": "Narman",
          "latitude": "40.34449000",
          "longitude": "41.86088000"
        },
        {
          "id": 108265,
          "name": "Oltu",
          "latitude": "40.53945000",
          "longitude": "41.98722000"
        },
        {
          "id": 108267,
          "name": "Olur",
          "latitude": "40.82165000",
          "longitude": "42.13055000"
        },
        {
          "id": 108307,
          "name": "Paland\u00f6ken",
          "latitude": "39.85560000",
          "longitude": "41.27975000"
        },
        {
          "id": 108314,
          "name": "Pasinler",
          "latitude": "39.97975000",
          "longitude": "41.66997000"
        },
        {
          "id": 108331,
          "name": "Pazaryolu",
          "latitude": "40.41142000",
          "longitude": "40.76780000"
        },
        {
          "id": 108950,
          "name": "\u015eenkaya",
          "latitude": "40.55652000",
          "longitude": "42.34266000"
        },
        {
          "id": 108562,
          "name": "Tekman",
          "latitude": "39.64111000",
          "longitude": "41.50542000"
        },
        {
          "id": 108589,
          "name": "Tortum",
          "latitude": "40.28892000",
          "longitude": "41.54096000"
        },
        {
          "id": 108636,
          "name": "Uzundere",
          "latitude": "40.53218000",
          "longitude": "41.53832000"
        },
        {
          "id": 108663,
          "name": "Yakutiye",
          "latitude": "40.00132000",
          "longitude": "41.30997000"
        }
      ]
    },
    {
      "id": 2164,
      "name": "Eski\u015fehir",
      "state_code": "26",
      "latitude": "39.63296570",
      "longitude": "31.26263660",
      "type": "province",
      "cities": [
        {
          "id": 107133,
          "name": "Alpu",
          "latitude": "39.76903000",
          "longitude": "30.96060000"
        },
        {
          "id": 107339,
          "name": "Beylikova",
          "latitude": "39.68694000",
          "longitude": "31.20556000"
        },
        {
          "id": 107378,
          "name": "Bozan",
          "latitude": "39.78806000",
          "longitude": "31.10167000"
        },
        {
          "id": 108827,
          "name": "\u00c7ifteler",
          "latitude": "39.38306000",
          "longitude": "31.03917000"
        },
        {
          "id": 107608,
          "name": "Eski\u015fehir",
          "latitude": "39.77667000",
          "longitude": "30.52056000"
        },
        {
          "id": 107748,
          "name": "G\u00fcny\u00fcz\u00fc \u0130l\u00e7esi",
          "latitude": "39.39410000",
          "longitude": "31.81400000"
        },
        {
          "id": 107786,
          "name": "Han",
          "latitude": "39.15917000",
          "longitude": "30.86139000"
        },
        {
          "id": 108906,
          "name": "\u0130n\u00f6n\u00fc",
          "latitude": "39.81534000",
          "longitude": "30.14549000"
        },
        {
          "id": 108103,
          "name": "K\u0131rka",
          "latitude": "39.27944000",
          "longitude": "30.52639000"
        },
        {
          "id": 108138,
          "name": "Mahmudiye \u0130l\u00e7esi",
          "latitude": "39.50724000",
          "longitude": "30.99247000"
        },
        {
          "id": 108208,
          "name": "Mihalgazi",
          "latitude": "40.02621000",
          "longitude": "30.57707000"
        },
        {
          "id": 108210,
          "name": "Mihal\u0131\u00e7c\u0131k \u0130l\u00e7esi",
          "latitude": "39.87564000",
          "longitude": "31.50091000"
        },
        {
          "id": 108260,
          "name": "Odunpazar\u0131",
          "latitude": "39.76699000",
          "longitude": "30.54113000"
        },
        {
          "id": 108398,
          "name": "Sar\u0131cakaya \u0130l\u00e7esi",
          "latitude": "40.04671000",
          "longitude": "30.61994000"
        },
        {
          "id": 108446,
          "name": "Sevin\u00e7",
          "latitude": "39.78000000",
          "longitude": "30.68889000"
        },
        {
          "id": 108453,
          "name": "Seyitgazi",
          "latitude": "39.44472000",
          "longitude": "30.69472000"
        },
        {
          "id": 108481,
          "name": "Sivrihisar",
          "latitude": "39.45037000",
          "longitude": "31.53409000"
        },
        {
          "id": 108566,
          "name": "Tepeba\u015f\u0131",
          "latitude": "39.78430000",
          "longitude": "30.50206000"
        }
      ]
    },
    {
      "id": 2203,
      "name": "Gaziantep",
      "state_code": "27",
      "latitude": "37.07638820",
      "longitude": "37.38272340",
      "type": "province",
      "cities": [
        {
          "id": 107170,
          "name": "Araban",
          "latitude": "37.42559000",
          "longitude": "37.78175000"
        },
        {
          "id": 107519,
          "name": "Do\u011fanp\u0131nar",
          "latitude": "36.84321000",
          "longitude": "37.61759000"
        },
        {
          "id": 107645,
          "name": "Gaziantep",
          "latitude": "37.05944000",
          "longitude": "37.38250000"
        },
        {
          "id": 108886,
          "name": "\u0130kizce",
          "latitude": "36.86262000",
          "longitude": "37.77432000"
        },
        {
          "id": 108917,
          "name": "\u0130slahiye \u0130l\u00e7esi",
          "latitude": "36.96528000",
          "longitude": "36.70972000"
        },
        {
          "id": 107925,
          "name": "Karkam\u0131\u015f",
          "latitude": "36.83452000",
          "longitude": "37.99830000"
        },
        {
          "id": 108250,
          "name": "Nizip",
          "latitude": "37.00972000",
          "longitude": "37.79417000"
        },
        {
          "id": 108253,
          "name": "Nurda\u011f\u0131",
          "latitude": "37.16821000",
          "longitude": "36.73623000"
        },
        {
          "id": 108303,
          "name": "O\u011fuzeli",
          "latitude": "36.96572000",
          "longitude": "37.51339000"
        },
        {
          "id": 108929,
          "name": "\u015eahinbey \u0130l\u00e7esi",
          "latitude": "37.03741000",
          "longitude": "37.37822000"
        },
        {
          "id": 108946,
          "name": "\u015eehitkamil",
          "latitude": "37.17217000",
          "longitude": "37.36974000"
        },
        {
          "id": 108424,
          "name": "Sekili",
          "latitude": "36.97876000",
          "longitude": "37.67174000"
        },
        {
          "id": 108630,
          "name": "Uluyat\u0131r",
          "latitude": "36.96333000",
          "longitude": "37.69361000"
        },
        {
          "id": 108677,
          "name": "Yavuzeli",
          "latitude": "37.31772000",
          "longitude": "37.56824000"
        },
        {
          "id": 108722,
          "name": "Ye\u015fildere",
          "latitude": "36.97300000",
          "longitude": "37.49488000"
        }
      ]
    },
    {
      "id": 2186,
      "name": "Giresun",
      "state_code": "28",
      "latitude": "40.64616720",
      "longitude": "38.59355110",
      "type": "province",
      "cities": [
        {
          "id": 107154,
          "name": "Alucra \u0130l\u00e7esi",
          "latitude": "40.31924000",
          "longitude": "38.76528000"
        },
        {
          "id": 107404,
          "name": "Bulancak",
          "latitude": "40.93805000",
          "longitude": "38.23148000"
        },
        {
          "id": 108772,
          "name": "\u00c7amoluk \u0130l\u00e7esi",
          "latitude": "40.13418000",
          "longitude": "38.73389000"
        },
        {
          "id": 108776,
          "name": "\u00c7anak\u00e7\u0131",
          "latitude": "40.86000000",
          "longitude": "39.05000000"
        },
        {
          "id": 107475,
          "name": "Dereli",
          "latitude": "40.61300000",
          "longitude": "38.39000000"
        },
        {
          "id": 107516,
          "name": "Do\u011fankent",
          "latitude": "40.80750000",
          "longitude": "38.91722000"
        },
        {
          "id": 107609,
          "name": "Espiye",
          "latitude": "40.94705000",
          "longitude": "38.70299000"
        },
        {
          "id": 107619,
          "name": "Eynesil",
          "latitude": "41.06436000",
          "longitude": "39.14274000"
        },
        {
          "id": 107675,
          "name": "Giresun",
          "latitude": "40.91698000",
          "longitude": "38.38741000"
        },
        {
          "id": 107713,
          "name": "G\u00f6rele",
          "latitude": "41.03083000",
          "longitude": "39.00306000"
        },
        {
          "id": 107724,
          "name": "G\u00fcce \u0130l\u00e7esi",
          "latitude": "40.89368000",
          "longitude": "38.80855000"
        },
        {
          "id": 107994,
          "name": "Ke\u015fap",
          "latitude": "40.91387000",
          "longitude": "38.51442000"
        },
        {
          "id": 108184,
          "name": "Merkez",
          "latitude": "40.82660000",
          "longitude": "38.36085000"
        },
        {
          "id": 108343,
          "name": "Piraziz",
          "latitude": "40.92244000",
          "longitude": "38.12458000"
        },
        {
          "id": 108942,
          "name": "\u015eebin Karahisar",
          "latitude": "40.28833000",
          "longitude": "38.42361000"
        },
        {
          "id": 108579,
          "name": "Tirebolu",
          "latitude": "41.00633000",
          "longitude": "38.84980000"
        },
        {
          "id": 108687,
          "name": "Ya\u011fl\u0131dere \u0130l\u00e7esi",
          "latitude": "40.85711000",
          "longitude": "38.63242000"
        }
      ]
    },
    {
      "id": 2204,
      "name": "G\u00fcm\u00fc\u015fhane",
      "state_code": "29",
      "latitude": "40.28036730",
      "longitude": "39.31432530",
      "type": "province",
      "cities": [
        {
          "id": 107615,
          "name": "Evren",
          "latitude": "40.24527000",
          "longitude": "39.17535000"
        },
        {
          "id": 107677,
          "name": "Gumushkhane",
          "latitude": "40.46001000",
          "longitude": "39.47176000"
        },
        {
          "id": 107969,
          "name": "Kelkit",
          "latitude": "40.12682000",
          "longitude": "39.43424000"
        },
        {
          "id": 108079,
          "name": "K\u00f6se",
          "latitude": "40.20692000",
          "longitude": "39.64626000"
        },
        {
          "id": 108090,
          "name": "K\u00fcrt\u00fcn",
          "latitude": "40.69516000",
          "longitude": "39.09468000"
        },
        {
          "id": 108181,
          "name": "Merkez",
          "latitude": "40.46843000",
          "longitude": "39.67441000"
        },
        {
          "id": 108959,
          "name": "\u015eiran",
          "latitude": "40.19064000",
          "longitude": "39.11747000"
        },
        {
          "id": 108591,
          "name": "Torul",
          "latitude": "40.55071000",
          "longitude": "39.28344000"
        },
        {
          "id": 108686,
          "name": "Ya\u011fl\u0131dere",
          "latitude": "40.54432000",
          "longitude": "39.52762000"
        }
      ]
    },
    {
      "id": 2190,
      "name": "Hakk\u00e2ri",
      "state_code": "30",
      "latitude": "37.44593190",
      "longitude": "43.74498410",
      "type": "province",
      "cities": [
        {
          "id": 108846,
          "name": "\u00c7ukurca",
          "latitude": "37.24806000",
          "longitude": "43.61361000"
        },
        {
          "id": 107774,
          "name": "Hakk\u00e2ri",
          "latitude": "37.57444000",
          "longitude": "43.74083000"
        },
        {
          "id": 107932,
          "name": "Karsani",
          "latitude": "37.30716000",
          "longitude": "43.45410000"
        },
        {
          "id": 108948,
          "name": "\u015eemdinli",
          "latitude": "37.30514000",
          "longitude": "44.57420000"
        },
        {
          "id": 108949,
          "name": "\u015eemdinni \u0130l\u00e7esi",
          "latitude": "37.31325000",
          "longitude": "44.58016000"
        },
        {
          "id": 108744,
          "name": "Y\u00fcksekova",
          "latitude": "37.54627000",
          "longitude": "44.25827000"
        }
      ]
    },
    {
      "id": 2211,
      "name": "Hatay",
      "state_code": "31",
      "latitude": "36.40184880",
      "longitude": "36.34980970",
      "type": "province",
      "cities": [
        {
          "id": 107238,
          "name": "A\u00e7\u0131kdere",
          "latitude": "36.21909000",
          "longitude": "36.25992000"
        },
        {
          "id": 107152,
          "name": "Alt\u0131n\u00f6z\u00fc",
          "latitude": "36.11244000",
          "longitude": "36.24488000"
        },
        {
          "id": 107162,
          "name": "Anayaz\u0131",
          "latitude": "36.32107000",
          "longitude": "36.19061000"
        },
        {
          "id": 107167,
          "name": "Antakya",
          "latitude": "36.20655000",
          "longitude": "36.15722000"
        },
        {
          "id": 107192,
          "name": "Arsuz",
          "latitude": "36.41305000",
          "longitude": "35.89033000"
        },
        {
          "id": 107248,
          "name": "A\u015fa\u011f\u0131 Karafak\u0131l\u0131",
          "latitude": "36.77885000",
          "longitude": "36.55776000"
        },
        {
          "id": 107249,
          "name": "A\u015fa\u011f\u0131ok\u00e7ular",
          "latitude": "36.17802000",
          "longitude": "36.14033000"
        },
        {
          "id": 107278,
          "name": "Bal\u0131kl\u0131dere",
          "latitude": "36.12096000",
          "longitude": "36.10481000"
        },
        {
          "id": 107328,
          "name": "Belen",
          "latitude": "36.48866000",
          "longitude": "36.19489000"
        },
        {
          "id": 107376,
          "name": "Boynuyo\u011fun",
          "latitude": "36.16935000",
          "longitude": "36.34249000"
        },
        {
          "id": 107418,
          "name": "B\u00fcy\u00fck Dalyan",
          "latitude": "36.28824000",
          "longitude": "36.20903000"
        },
        {
          "id": 107420,
          "name": "B\u00fcy\u00fck\u00e7at",
          "latitude": "36.11500000",
          "longitude": "36.07740000"
        },
        {
          "id": 108859,
          "name": "\u00c7\u0131rt\u0131man",
          "latitude": "36.52531000",
          "longitude": "36.18129000"
        },
        {
          "id": 107458,
          "name": "Defne",
          "latitude": "36.23739000",
          "longitude": "36.16364000"
        },
        {
          "id": 107469,
          "name": "Denizciler",
          "latitude": "36.64110000",
          "longitude": "36.21418000"
        },
        {
          "id": 107539,
          "name": "D\u00f6rtyol",
          "latitude": "36.83917000",
          "longitude": "36.23025000"
        },
        {
          "id": 107534,
          "name": "Dursunlu",
          "latitude": "36.16736000",
          "longitude": "36.15788000"
        },
        {
          "id": 107600,
          "name": "Erzin",
          "latitude": "36.95348000",
          "longitude": "36.19839000"
        },
        {
          "id": 107736,
          "name": "G\u00fcm\u00fc\u015fg\u00f6ze",
          "latitude": "36.14785000",
          "longitude": "36.13284000"
        },
        {
          "id": 107747,
          "name": "G\u00fcnyaz\u0131",
          "latitude": "36.23307000",
          "longitude": "36.11702000"
        },
        {
          "id": 107769,
          "name": "Hac\u0131pa\u015fa",
          "latitude": "36.06907000",
          "longitude": "36.37076000"
        },
        {
          "id": 107804,
          "name": "Hassa",
          "latitude": "36.79944000",
          "longitude": "36.51778000"
        },
        {
          "id": 108913,
          "name": "\u0130skenderun",
          "latitude": "36.58718000",
          "longitude": "36.17347000"
        },
        {
          "id": 107916,
          "name": "Karas\u00fcleymanl\u0131",
          "latitude": "36.34191000",
          "longitude": "36.41431000"
        },
        {
          "id": 107938,
          "name": "Kastal",
          "latitude": "36.24760000",
          "longitude": "36.24090000"
        },
        {
          "id": 108107,
          "name": "K\u0131r\u0131khan",
          "latitude": "36.49939000",
          "longitude": "36.35755000"
        },
        {
          "id": 108124,
          "name": "K\u0131\u015flak",
          "latitude": "35.96750000",
          "longitude": "36.15749000"
        },
        {
          "id": 108111,
          "name": "K\u0131zkalesi",
          "latitude": "36.46192000",
          "longitude": "34.14199000"
        },
        {
          "id": 108050,
          "name": "Kumlu \u0130l\u00e7esi",
          "latitude": "36.36508000",
          "longitude": "36.45526000"
        },
        {
          "id": 108066,
          "name": "Kuzeytepe",
          "latitude": "36.26505000",
          "longitude": "36.15350000"
        },
        {
          "id": 108140,
          "name": "Mahmutlar",
          "latitude": "36.94900000",
          "longitude": "36.19231000"
        },
        {
          "id": 108320,
          "name": "Payas",
          "latitude": "36.75600000",
          "longitude": "36.21432000"
        },
        {
          "id": 108368,
          "name": "Reyhanl\u0131",
          "latitude": "36.26791000",
          "longitude": "36.56747000"
        },
        {
          "id": 108378,
          "name": "Samankaya",
          "latitude": "36.15027000",
          "longitude": "36.12829000"
        },
        {
          "id": 108444,
          "name": "Serinyol",
          "latitude": "36.36139000",
          "longitude": "36.21361000"
        },
        {
          "id": 108569,
          "name": "Tepehan",
          "latitude": "36.15853000",
          "longitude": "36.22860000"
        },
        {
          "id": 108595,
          "name": "Toygarl\u0131",
          "latitude": "36.21261000",
          "longitude": "36.07262000"
        },
        {
          "id": 108635,
          "name": "Uzunba\u011f",
          "latitude": "36.14023000",
          "longitude": "36.03603000"
        },
        {
          "id": 108639,
          "name": "Uzunkavak",
          "latitude": "36.35240000",
          "longitude": "36.41952000"
        },
        {
          "id": 108679,
          "name": "Yaylada\u011f\u0131",
          "latitude": "35.90250000",
          "longitude": "36.06272000"
        }
      ]
    },
    {
      "id": 2166,
      "name": "I\u011fd\u0131r",
      "state_code": "76",
      "latitude": "39.88798410",
      "longitude": "44.00483650",
      "type": "province",
      "cities": [
        {
          "id": 107852,
          "name": "I\u011fd\u0131r",
          "latitude": "39.92371000",
          "longitude": "44.04500000"
        },
        {
          "id": 107899,
          "name": "Karakoyunlu",
          "latitude": "39.87036000",
          "longitude": "43.63014000"
        },
        {
          "id": 108610,
          "name": "Tuzluca \u0130l\u00e7esi",
          "latitude": "40.03863000",
          "longitude": "43.65212000"
        }
      ]
    },